city,lat,lng,temp_max,humidity,cloudiness,wind speed,country,date
maceio,-9.67,-35.74,80.6,78,0,13.87,BR,1604265582
wanaka,-44.7,169.15,51.22,64,100,1.48,NZ,1604265604
tuktoyaktuk,69.45,-133.04,12.2,85,90,8.05,CA,1604265604
jamestown,42.1,-79.24,37.99,90,90,20.15,US,1604265278
ushuaia,-54.8,-68.3,57.2,58,75,2.24,AR,1604265437
namtsy,62.72,129.67,-23.8,74,40,4.47,RU,1604265605
kruisfontein,-34.0,24.73,64.0,77,28,4.0,ZA,1604265322
tuatapere,-46.13,167.68,48.99,88,26,5.99,NZ,1604265280
los llanos de aridane,28.66,-17.92,78.8,22,0,9.17,ES,1604265606
qaanaaq,77.48,-69.36,1.29,74,0,7.58,GL,1604265275
te anau,-45.42,167.72,47.84,75,100,2.28,NZ,1604265309
upernavik,72.79,-56.15,16.57,93,96,4.38,GL,1604265278
yellowknife,62.46,-114.35,18.0,85,90,8.05,CA,1604265285
punta arenas,-53.15,-70.92,51.8,76,75,14.99,CL,1604265607
norman wells,65.28,-126.83,8.6,65,20,10.29,CA,1604265454
whitehorse,60.72,-135.05,8.01,77,90,12.75,CA,1604265609
rikitea,-23.12,-134.97,74.41,86,84,22.73,PF,1604265274
coquimbo,-29.95,-71.34,59.0,72,20,13.87,CL,1604265610
college,64.86,-147.8,1.0,76,75,0.98,US,1604265278
auki,-8.77,160.7,82.24,77,70,2.35,SB,1604265302
popondetta,-8.75,148.25,78.26,79,81,2.39,PG,1604265611
gushikawa,26.35,127.87,71.6,93,1,5.82,JP,1604265612
bastrop,32.76,-91.87,71.6,32,1,4.7,US,1604265612
aklavik,68.22,-135.01,17.6,72,75,6.93,CA,1604265282
big rapids,43.7,-85.48,33.01,87,90,12.75,US,1604265613
saskylakh,71.92,114.08,-10.07,88,88,9.6,RU,1604265299
marawi,8.0,124.29,73.99,92,100,1.99,PH,1604265295
yakeshi,49.28,120.73,12.92,92,100,10.25,CN,1604265614
hobart,-42.88,147.33,60.01,72,40,6.93,AU,1604265332
aasiaat,68.71,-52.87,17.04,97,100,5.41,GL,1604265614
port elizabeth,-33.92,25.57,64.4,82,20,10.29,ZA,1604265615
new norfolk,-42.78,147.06,55.0,70,100,1.01,AU,1604265455
matola,-25.96,32.46,69.01,90,96,1.99,MZ,1604265616
hilo,19.73,-155.09,82.99,74,90,3.36,US,1604265383
guerrero negro,27.98,-114.06,80.46,37,19,11.12,MX,1604265617
sirajganj,24.45,89.72,77.74,89,88,4.5,BD,1604265617
albany,42.6,-73.97,46.99,86,100,1.99,US,1604265240
lishui,28.46,119.91,60.57,79,93,2.8,CN,1604265618
pevek,69.7,170.31,15.6,91,100,13.15,RU,1604265317
vestmannaeyjar,63.44,-20.27,38.59,74,0,21.74,IS,1604265298
lebu,-37.62,-73.65,57.65,80,5,6.73,CL,1604265437
avarua,-21.21,-159.78,78.8,83,62,18.34,CK,1604265284
fairbanks,64.84,-147.72,1.0,83,75,1.03,US,1604265316
khatanga,71.97,102.5,3.38,92,100,5.79,RU,1604265313
vaini,-21.2,-175.2,77.0,83,75,9.17,TO,1604265281
lagoa,39.05,-27.98,63.05,83,100,21.27,PT,1604265275
kloulklubed,7.04,134.26,75.2,94,75,5.73,PW,1604265621
ambositra,-20.52,47.25,57.02,93,72,1.7,MG,1604265621
bara,10.37,10.73,79.16,30,35,7.2,NG,1604265622
severo-kurilsk,50.68,156.12,40.46,75,0,4.92,RU,1604265300
cape town,-33.93,18.42,66.2,68,0,14.99,ZA,1604265623
komsomolskiy,40.43,71.72,46.4,39,100,6.93,UZ,1604265458
berlevag,70.86,29.09,37.4,86,0,18.34,NO,1604265307
mar del plata,-38.0,-57.56,66.2,59,0,10.29,AR,1604265552
hermanus,-34.42,19.23,63.0,83,2,5.01,ZA,1604265296
noumea,-22.28,166.46,82.4,51,0,6.93,NC,1604265341
georgetown,5.41,100.34,78.8,88,20,3.36,MY,1604265256
ribeira grande,38.52,-28.7,62.6,82,75,5.82,PT,1604265283
busselton,-33.65,115.33,55.0,82,88,5.86,AU,1604265274
puerto ayora,-0.74,-90.35,78.8,69,40,13.87,EC,1604265277
castro,-24.79,-50.01,60.44,74,18,9.06,BR,1604265275
loa janan,-0.58,117.09,73.33,97,100,2.46,ID,1604265629
nikolskoye,59.7,30.79,33.01,94,90,6.71,RU,1604265279
neryungri,56.67,124.65,-3.8,88,100,13.02,RU,1604265630
katubao,5.89,124.83,80.62,68,100,4.27,PH,1604265630
tselina,46.53,41.03,57.65,89,100,6.49,RU,1604265630
zhigansk,66.77,123.37,-3.24,91,82,17.49,RU,1604265631
noshiro,40.2,140.02,53.44,91,100,12.01,JP,1604265632
birao,10.28,22.79,78.26,37,0,2.08,CF,1604265324
saldanha,-33.01,17.94,66.2,59,0,4.7,ZA,1604265286
port lincoln,-34.73,135.87,63.93,61,47,11.5,AU,1604265633
gao,16.64,1.64,80.58,16,14,12.37,ML,1604265633
esil,51.96,66.4,35.26,94,99,5.84,KZ,1604265634
san carlos de bariloche,-41.15,-71.31,80.6,14,20,11.41,AR,1604265634
diamantino,-14.41,-56.45,84.78,54,56,4.85,BR,1604265327
pasni,25.26,63.47,74.44,40,0,9.17,PK,1604265289
lethem,3.38,-59.8,89.92,52,72,3.27,GY,1604265635
ciudad bolivar,8.12,-63.55,89.98,55,73,0.72,VE,1604265636
codrington,-38.27,141.97,54.07,82,48,6.6,AU,1604265326
vanimo,-2.67,141.3,78.85,82,99,5.23,PG,1604265637
arraial do cabo,-22.97,-42.03,71.6,68,75,6.93,BR,1604265637
seoul,37.57,126.98,44.6,100,1,2.64,KR,1604265638
belmonte,-15.86,-38.88,82.4,83,20,1.12,BR,1604265278
mataura,-46.19,168.86,48.99,86,67,8.01,NZ,1604265640
barrow,71.29,-156.79,28.4,74,75,21.92,US,1604265297
cherskiy,68.75,161.3,3.49,94,100,5.39,RU,1604265278
sayansk,54.11,102.16,15.49,88,10,7.02,RU,1604265641
kapaa,22.08,-159.32,82.0,69,1,3.36,US,1604265641
astana,51.18,71.45,33.8,74,0,6.71,KZ,1604265384
zyryanka,65.75,150.85,-3.08,91,96,1.83,RU,1604265347
meulaboh,4.14,96.13,76.1,87,100,2.68,ID,1604265425
aleksandrov gay,50.15,48.57,45.61,58,46,7.31,RU,1604265643
bengkulu,-3.8,102.27,75.16,86,99,4.07,ID,1604265314
tsumeb,-19.23,17.72,76.46,44,80,8.79,NA,1604265644
longyearbyen,78.22,15.64,32.0,93,0,27.51,SJ,1604265299
kihei,20.79,-156.47,86.0,58,40,9.17,US,1604265645
east london,-33.02,27.91,66.04,84,82,15.66,ZA,1604265192
atuona,-9.8,-139.03,77.72,79,25,14.83,PF,1604265283
kaseda,31.42,130.32,69.91,83,100,1.43,JP,1604265646
bluff,-46.6,168.33,48.99,88,100,5.99,NZ,1604265282
airai,-8.93,125.41,60.39,78,98,2.35,TL,1604265287
manyana,-23.4,21.72,76.35,42,100,4.03,BW,1604265580
saint-philippe,-21.36,55.77,69.8,64,90,6.93,RE,1604265281
teguise,29.06,-13.56,69.8,83,20,6.93,ES,1604265648
broken hill,-31.95,141.43,60.8,59,0,5.82,AU,1604265648
honningsvag,70.98,25.97,41.0,75,40,18.34,NO,1604265287
kenai,60.55,-151.26,26.01,41,1,21.92,US,1604265649
shache,38.42,77.24,35.35,81,0,3.67,CN,1604265300
shimoda,34.67,138.95,53.01,86,31,5.93,JP,1604265286
hasaki,35.73,140.83,51.8,100,40,4.7,JP,1604265296
kungurtug,50.6,97.52,19.18,87,0,1.97,RU,1604265650
itarema,-2.92,-39.92,80.6,79,0,16.84,BR,1604265651
ancud,-41.87,-73.82,64.4,63,0,10.29,CL,1604265294
mahebourg,-20.41,57.7,71.6,68,75,10.29,MU,1604265285
hukuntsi,-24.0,21.75,77.63,38,98,3.13,BW,1604265652
porto novo,6.5,2.6,79.92,85,65,8.46,BJ,1604265652
atasu,48.68,71.64,36.48,65,66,4.23,KZ,1604265653
sao joaquim,-28.29,-49.93,50.14,91,76,6.08,BR,1604265653
talnakh,69.49,88.4,21.2,85,75,15.66,RU,1604265287
kahului,20.89,-156.47,86.0,58,40,9.17,US,1604265290
gallup,35.53,-108.74,71.6,17,1,4.7,US,1604265478
fort myers beach,26.45,-81.95,87.01,70,40,6.93,US,1604265619
esperance,-33.87,121.9,62.6,100,90,11.41,AU,1604265291
tirumullaivasal,11.23,79.83,78.94,77,38,2.24,IN,1604265655
isangel,-19.55,169.27,78.6,75,10,14.61,VU,1604265310
mount gambier,-37.83,140.77,50.0,93,57,5.82,AU,1604265656
port hardy,50.7,-127.42,53.6,71,75,8.05,CA,1604265656
davila,18.47,120.58,79.9,87,100,27.07,PH,1604265656
burnie,-41.07,145.92,57.0,79,100,3.0,AU,1604265306
mossendjo,-2.95,12.73,70.2,99,100,2.06,CG,1604265657
nelson bay,-32.72,152.15,66.0,87,75,11.41,AU,1604265658
butaritari,3.07,172.79,81.93,78,0,10.27,KI,1604265275
luau,-10.71,22.22,66.33,78,11,3.13,AO,1604265658
poum,-20.23,164.02,77.76,72,0,12.53,NC,1604265659
ponta do sol,32.67,-17.1,68.0,82,20,5.82,PT,1604265276
bambous virieux,-20.34,57.76,71.6,68,75,10.29,MU,1604265659
alofi,-19.06,-169.92,77.0,94,34,11.41,NU,1604265193
maloy,61.94,5.11,48.2,81,100,34.45,NO,1604265660
hobyo,5.35,48.53,80.46,77,0,6.44,SO,1604265303
qaqortoq,60.72,-46.03,26.6,68,0,24.4,GL,1604265661
riyadh,24.69,46.72,69.8,35,0,6.87,SA,1604265402
saint-etienne,45.43,4.4,57.2,76,95,6.93,FR,1604265662
grand gaube,-20.01,57.66,66.99,68,50,1.99,MU,1604265662
gafanha da encarnacao,40.62,-8.73,66.0,92,92,6.67,PT,1604265663
tezu,27.92,96.17,70.18,72,40,2.53,IN,1604265312
touros,-5.2,-35.46,82.4,74,40,17.22,BR,1604265095
mitu,1.2,-70.17,76.35,91,100,0.85,CO,1604265504
cessnock,-32.83,151.35,64.0,83,86,7.38,AU,1604265664
eirunepe,-6.66,-69.87,84.94,62,97,1.39,BR,1604265427
bethel,41.37,-73.41,51.01,97,100,1.99,US,1604265286
bilibino,68.05,166.44,2.07,83,65,0.89,RU,1604265319
kavaratti,10.57,72.64,81.66,70,0,3.6,IN,1604265666
gat,31.61,34.76,73.99,70,100,2.84,IL,1604265440
saint george,37.1,-113.58,78.01,12,1,3.36,US,1604265555
santa cruz,-17.8,-63.17,91.4,24,0,11.41,BO,1604265667
antofagasta,-23.65,-70.4,62.6,67,20,16.11,CL,1604265579
jos,9.92,8.9,69.8,46,0,9.17,NG,1604265667
cabo san lucas,22.89,-109.91,93.2,21,5,4.7,MX,1604265607
lata,40.16,-8.33,66.0,92,98,1.21,PT,1604265669
pirmasens,49.2,7.61,62.01,93,90,8.05,DE,1604265669
faanui,-16.48,-151.75,80.1,79,23,22.82,PF,1604265291
umm lajj,25.02,37.27,79.48,59,45,2.95,SA,1604265670
zabaykalsk,49.63,117.32,18.77,90,59,13.58,RU,1604265670
zyryanovsk,49.74,84.27,23.09,93,0,1.01,KZ,1604265671
bredasdorp,-34.53,20.04,64.4,88,29,8.05,ZA,1604265290
hithadhoo,-0.6,73.08,83.19,74,100,10.96,MV,1604265278
jalu,29.03,21.55,66.0,52,0,6.11,LY,1604265610
berbera,10.44,45.01,80.15,63,0,7.23,SO,1604265672
kavieng,-2.57,150.8,83.59,71,12,7.52,PG,1604265285
todos santos,23.45,-110.22,82.0,71,0,4.0,MX,1604265673
northam,51.03,-4.22,62.01,95,100,23.0,GB,1604265330
hokitika,-42.72,170.97,55.11,81,100,2.71,NZ,1604265325
svetlogorsk,52.63,29.73,43.88,85,100,7.56,BY,1604265675
pontianak,-0.03,109.33,75.67,91,84,2.24,ID,1604265625
teahupoo,-17.83,-149.27,84.2,66,75,6.93,PF,1604265676
ingham,42.6,-84.38,35.6,59,90,25.28,US,1604265677
broome,42.25,-75.83,45.0,87,90,9.17,US,1604265677
turtas,58.94,69.13,26.96,99,55,6.26,RU,1604265677
lucea,18.45,-78.17,84.2,79,40,13.87,JM,1604265678
constitucion,-35.33,-72.42,57.92,76,61,8.48,CL,1604265276
hambantota,6.12,81.12,79.14,83,76,6.87,LK,1604265678
clyde river,70.47,-68.59,10.4,92,90,4.7,CA,1604265679
dawei,14.08,98.2,75.07,91,2,3.89,MM,1604265679
klyuchi,52.27,79.17,35.6,83,93,9.82,RU,1604265680
lorengau,-2.02,147.27,83.84,72,11,6.08,PG,1604265280
zhicheng,30.3,111.5,55.0,73,96,5.17,CN,1604265680
caravelas,-17.71,-39.25,69.84,88,100,9.37,BR,1604265284
ariano irpino,41.15,15.08,52.0,87,90,14.99,IT,1604265681
puerto madryn,-42.77,-65.04,96.8,6,40,18.34,AR,1604265682
deputatskiy,69.3,139.9,-14.96,88,90,6.4,RU,1604265278
san vicente,-26.62,-54.13,72.79,47,80,3.47,AR,1604265682
del rio,29.36,-100.9,87.8,22,1,4.7,US,1604265683
kijang,35.24,129.21,55.4,87,75,2.24,KR,1604265683
kodiak,57.79,-152.41,30.2,58,90,13.87,US,1604265315
smolenka,52.14,113.5,12.2,66,0,2.24,RU,1604265684
erenhot,43.65,111.98,22.93,72,0,9.4,CN,1604265684
mangrol,21.12,70.12,78.82,36,44,11.9,IN,1604265685
chunskiy,56.08,99.63,23.13,85,100,3.71,RU,1604265685
kaele,10.11,14.45,82.29,24,0,9.33,CM,1604265685
port alfred,-33.59,26.89,65.73,83,43,20.69,ZA,1604265291
waipawa,-41.41,175.52,57.2,82,100,6.93,NZ,1604265686
padang,-0.95,100.35,77.94,72,100,2.82,ID,1604265273
san cristobal,7.77,-72.22,86.0,55,40,4.7,VE,1604265687
omsukchan,62.53,155.8,12.74,93,100,6.15,RU,1604265687
cayenne,4.93,-52.33,82.4,83,75,2.24,GF,1604265295
praia da vitoria,38.73,-27.07,64.0,100,75,15.82,PT,1604265453
oxapampa,-10.58,-75.4,63.88,83,100,2.26,PE,1604265632
chuy,-33.7,-53.46,60.37,63,0,7.09,UY,1604265283
carutapera,-1.2,-46.02,80.31,77,33,6.96,BR,1604265292
kasongo-lunda,-6.47,16.82,71.94,89,100,0.49,CD,1604265689
selenginsk,52.01,106.86,10.4,85,75,2.24,RU,1604265689
bubaque,11.28,-15.83,83.71,76,0,14.52,GW,1604265318
requena,39.49,-1.1,54.0,57,72,1.01,ES,1604265691
yambio,4.57,28.4,70.12,95,100,1.23,SS,1604265691
trinidad,-14.83,-64.9,93.2,36,0,9.17,BO,1604265691
moerai,-22.43,-151.33,75.97,86,95,18.07,PF,1604265692
vao,-22.67,167.48,74.35,85,100,17.81,NC,1604265295
da nang,16.07,108.22,75.2,88,40,4.7,VN,1604265693
manadhoo,5.77,73.38,82.08,74,29,7.7,MV,1604265693
chizhou,30.66,117.48,58.89,83,100,0.13,CN,1604265694
ahipara,-35.17,173.17,68.38,74,100,7.11,NZ,1604265695
male,4.17,73.51,82.4,83,20,5.82,MV,1604265411
yongchang,30.04,119.73,61.0,92,100,0.78,CN,1604265695
lixourion,38.2,20.43,64.98,67,67,2.37,GR,1604265696
disa,24.25,72.17,72.01,23,0,5.03,IN,1604265696
kalmunai,7.42,81.82,80.64,75,69,6.2,LK,1604265347
soyo,-6.13,12.37,78.46,86,100,8.14,AO,1604265697
alice springs,-23.7,133.88,64.4,27,0,8.55,AU,1604265698
laguna,38.42,-121.42,80.01,23,1,2.59,US,1604265283
timmins,48.47,-81.33,28.4,92,90,19.46,CA,1604265645
matara,5.95,80.54,76.64,86,8,6.51,LK,1604265700
limon,10.0,-83.03,80.6,88,75,10.29,CR,1604265700
mingaora,34.78,72.36,57.97,28,0,6.93,PK,1604265701
trogir,43.51,16.25,59.0,77,0,3.36,HR,1604265701
yugorsk,61.31,63.33,26.87,96,0,7.9,RU,1604265701
bassano,50.78,-112.47,62.6,44,65,8.05,CA,1604265702
leningradskiy,69.38,178.42,14.34,82,90,5.7,RU,1604265292
namatanai,-3.67,152.43,81.95,77,99,4.38,PG,1604265345
moussoro,13.64,16.49,84.29,19,5,13.91,TD,1604265703
yerbogachen,61.28,108.01,6.17,93,0,8.14,RU,1604265339
vostok,46.49,135.88,27.32,99,70,3.76,RU,1604265343
maltahohe,-24.83,16.98,68.95,24,32,11.36,NA,1604265704
goderich,43.75,-81.72,37.4,74,100,26.4,CA,1604265672
magan,39.97,-3.93,61.0,60,99,3.27,ES,1604265705
hamilton,39.18,-84.53,46.99,49,0,8.01,US,1604265167
doctor arroyo,23.67,-100.18,73.04,21,0,4.5,MX,1604265706
liberal,37.04,-100.92,64.4,34,1,14.99,US,1604265706
kudat,6.88,116.85,77.0,88,20,5.82,MY,1604265707
nelson,-41.28,173.28,60.01,75,100,1.99,NZ,1604265707
wilmington,34.23,-77.94,69.01,77,40,12.75,US,1604265445
byron bay,-28.65,153.62,66.0,82,19,6.93,AU,1604265708
avera,33.19,-82.53,69.8,60,1,14.99,US,1604265708
vengerovo,55.68,76.75,34.72,90,100,12.62,RU,1604265708
nome,64.5,-165.41,12.2,85,1,4.5,US,1604265348
palmer,42.16,-72.33,50.0,87,90,6.93,US,1604265709
chadiza,-14.07,32.44,66.22,81,28,5.5,ZM,1604265709
bandarbeyla,9.49,50.81,77.11,75,0,19.98,SO,1604265710
ishigaki,24.34,124.16,75.2,83,20,10.29,JP,1604265710
chicama,-7.84,-79.15,64.4,77,75,10.29,PE,1604265342
provideniya,64.38,-173.3,19.4,67,0,4.47,RU,1604265279
zongolica,18.67,-96.98,67.39,78,98,3.51,MX,1604265711
thompson,55.74,-97.86,23.0,85,90,11.41,CA,1604265170
korla,41.76,86.15,35.01,59,0,11.99,CN,1604265712
nainpur,22.43,80.12,62.96,43,0,3.69,IN,1604265712
ojinaga,29.57,-104.42,80.6,21,1,12.75,MX,1604265713
moengo,5.62,-54.4,83.28,68,100,6.69,SR,1604265713
san patricio,28.02,-97.52,82.99,37,20,11.41,US,1604265713
carnarvon,-24.87,113.63,68.0,64,40,18.34,AU,1604265065
esso,55.93,158.7,24.55,94,97,2.91,RU,1604265714
kristinehamn,59.31,14.11,51.8,93,100,19.46,SE,1604265715
chokurdakh,70.63,147.92,0.61,94,100,11.03,RU,1604265282
ferrol,43.48,-8.24,70.0,82,20,10.29,ES,1604265715
vaitape,-16.52,-151.75,80.96,78,24,22.88,PF,1604265716
geraldton,-28.77,114.6,57.2,93,75,9.17,AU,1604265309
muros,42.78,-9.06,66.0,92,100,17.0,ES,1604265716
marrakesh,31.63,-8.01,71.6,30,0,3.36,MA,1604265717
kaitangata,-46.28,169.85,53.01,63,68,8.99,NZ,1604265288
victoria,22.29,114.16,75.0,72,100,1.01,HK,1604265043
beringovskiy,63.05,179.32,23.54,96,100,4.0,RU,1604265343
suntar,62.14,117.63,0.18,92,14,5.61,RU,1604265718
port hedland,-20.32,118.57,73.4,83,75,8.05,AU,1604265719
bilma,18.69,12.92,73.04,23,0,6.98,NE,1604265719
dobromir,44.02,27.78,53.6,66,40,6.93,RO,1604265720
khromtau,50.25,58.43,40.24,67,0,8.3,KZ,1604265720
marsabit,2.33,37.99,69.01,70,64,15.46,KE,1604265300
nogent-le-rotrou,48.33,1.0,62.6,93,100,19.46,FR,1604265722
dmitriyevka,54.75,55.33,33.8,86,90,6.71,RU,1604265722
vila franca do campo,37.72,-25.43,64.4,88,75,23.04,PT,1604265723
pasighat,28.07,95.33,69.57,73,26,2.19,IN,1604265723
harper,4.38,-7.72,77.9,88,48,6.02,LR,1604265306
menongue,-14.66,17.69,77.32,36,98,6.64,AO,1604265723
tiksi,71.69,128.87,-6.3,90,0,6.78,RU,1604265278
narsaq,60.92,-46.05,26.6,68,0,11.79,GL,1604265301
adrar,20.5,-10.07,81.41,16,100,9.57,MR,1604265338
eureka,40.8,-124.16,66.0,67,1,6.93,US,1604265725
krasnoselkup,65.7,82.47,22.87,96,100,18.1,RU,1604265726
opuwo,-18.06,13.84,73.08,30,53,6.8,NA,1604265726
pangody,65.85,74.49,29.01,97,89,17.92,RU,1604265727
bac lieu,9.29,105.72,78.28,87,100,8.86,VN,1604265728
saint-georges,12.06,-61.75,77.0,94,75,14.99,GD,1604265597
chauk,20.88,94.82,76.06,84,99,2.57,MM,1604265729
harrison,30.41,-89.04,75.2,38,1,17.22,US,1604265729
sao joao da barra,-21.64,-41.05,71.6,73,75,19.46,BR,1604265730
bom conselho,-9.17,-36.68,77.0,66,100,9.53,BR,1604265730
baykit,61.67,96.37,20.62,95,100,5.26,RU,1604265300
wajima,37.4,136.9,62.28,84,100,19.91,JP,1604265731
buin,-33.73,-70.75,80.6,34,0,8.05,CL,1604265296
raudeberg,61.99,5.14,48.0,87,100,27.11,NO,1604265732
cape canaveral,28.41,-80.6,79.0,78,40,10.29,US,1604265732
chokwe,-24.53,32.98,68.83,85,85,4.52,MZ,1604265733
phalaborwa,-23.94,31.14,68.0,94,100,9.17,ZA,1604265735
yablonovo,50.85,37.36,46.4,93,75,6.71,RU,1604265735
dikson,73.51,80.55,18.03,98,97,8.39,RU,1604265281
kununurra,-15.77,128.73,78.8,74,89,3.36,AU,1604265736
baker city,44.77,-117.83,62.6,25,1,17.22,US,1604265736
naze,28.37,129.48,73.4,94,75,4.7,JP,1604265338
mazyr,52.05,29.25,43.86,87,98,7.09,BY,1604265737
skjervoy,70.03,20.97,42.8,75,0,17.22,NO,1604265348
khirkiya,22.17,76.86,66.6,41,0,4.63,IN,1604265740
paragominas,-2.97,-47.48,86.85,47,93,2.33,BR,1604265740
monrovia,6.3,-10.8,79.72,84,73,8.05,LR,1604265741
abong mbang,3.98,13.18,69.67,90,99,1.01,CM,1604265741
tamandare,-8.76,-35.1,78.03,81,77,10.29,BR,1604265741
tautira,-17.73,-149.15,84.2,66,75,6.93,PF,1604265741
dingle,11.0,122.67,75.18,90,100,5.5,PH,1604265295
sambava,-14.27,50.17,71.73,71,88,13.09,MG,1604265742
manggar,-2.88,108.27,78.08,84,100,5.21,ID,1604265743
takaka,-40.85,172.8,55.99,84,100,5.01,NZ,1604265744
myitkyina,25.38,97.4,69.4,97,100,1.79,MM,1604265744
north platte,41.12,-100.77,57.2,28,1,12.75,US,1604265744
cotonou,6.37,2.42,80.91,84,62,12.19,BJ,1604265745
certegui,5.37,-76.6,79.57,90,86,3.38,CO,1604265745
champerico,14.3,-91.92,89.6,62,40,9.17,GT,1604265312
christchurch,-43.53,172.63,57.0,71,100,5.82,NZ,1604265744
alta floresta,-9.88,-56.09,73.4,100,75,9.17,BR,1604265746
sinor,21.92,73.33,74.48,41,29,6.15,IN,1604265746
unicov,49.77,17.12,48.99,98,100,3.94,CZ,1604265746
saint-augustin,51.23,-58.65,36.25,81,81,21.45,CA,1604265508
pisco,-13.7,-76.22,66.2,77,90,9.17,PE,1604265264
wattegama,6.8,81.48,75.25,90,98,2.89,LK,1604265748
takoradi,4.88,-1.76,78.84,88,100,7.78,GH,1604265319
lavrentiya,65.58,-171.0,22.1,88,0,4.09,RU,1604265309
arlit,18.74,7.39,77.83,21,100,17.96,NE,1604265748
urusha,54.05,122.9,8.58,83,100,10.8,RU,1604265749
katsuura,35.13,140.3,59.0,77,75,5.82,JP,1604265134
beloha,-25.17,45.05,66.78,80,9,15.61,MG,1604265749
shaoxing,30.01,120.57,60.8,93,75,4.47,CN,1604265750
alem paraiba,-21.89,-42.7,65.23,76,95,2.82,BR,1604265750
batagay-alyta,67.8,130.41,-9.9,85,47,1.61,RU,1604265750
tourlaville,49.64,-1.57,61.0,93,90,24.16,FR,1604265751
bugojno,44.06,17.45,53.1,71,94,2.8,BA,1604265751
nicoya,10.15,-85.45,84.2,70,75,13.87,CR,1604265751
petropavlovsk-kamchatskiy,53.05,158.65,28.4,86,8,6.71,RU,1604265752
necochea,-38.55,-58.74,64.0,64,40,12.66,AR,1604265752
kyren,51.68,102.14,18.57,84,23,1.45,RU,1604265753
chara,56.91,118.26,-9.6,80,5,0.47,RU,1604265338
luganville,-15.53,167.17,82.4,78,40,3.36,VU,1604265754
novyy oskol,50.76,37.87,47.73,88,2,8.79,RU,1604265755
rawah,34.48,41.91,71.62,25,24,12.59,IQ,1604265755
buguruslan,53.66,52.44,37.71,92,27,7.56,RU,1604265756
lakes entrance,-37.88,147.98,60.01,97,84,3.15,AU,1604265756
bay roberts,47.6,-53.26,39.0,80,98,8.01,CA,1604265756
bathsheba,13.22,-59.52,82.4,78,75,21.92,BB,1604265757
tasiilaq,65.61,-37.64,30.2,86,90,5.82,GL,1604265449
alexandria,31.22,29.96,73.4,56,20,8.05,EG,1604265572
dunedin,-45.87,170.5,54.0,54,100,15.01,NZ,1604265331
mongo,12.18,18.69,86.13,28,68,5.64,TD,1604265758
el alto,-4.27,-81.21,68.5,72,48,17.87,PE,1604265758
progreso,21.28,-89.67,82.0,74,90,11.41,MX,1604265528
nisia floresta,-6.09,-35.21,82.4,78,40,14.99,BR,1604265495
sindou,10.67,-5.17,78.55,35,0,0.85,BF,1604265759
molchanovo,57.58,83.77,35.35,97,100,9.19,RU,1604265760
veraval,20.9,70.37,79.45,41,47,12.68,IN,1604265628
tual,-5.67,132.75,83.7,70,100,14.92,ID,1604265761
miura,35.14,139.62,59.0,72,20,4.7,JP,1604265761
barraute,48.43,-77.63,35.6,93,90,13.87,CA,1604265761
olinda,-8.01,-34.86,82.4,69,40,9.17,BR,1604265492
cidreira,-30.18,-50.21,64.98,63,28,8.59,BR,1604265304
nanortalik,60.14,-45.24,30.38,86,0,30.4,GL,1604265329
belyy yar,53.6,91.39,26.6,92,55,2.24,RU,1604265764
deep river,46.1,-77.5,44.6,81,75,6.93,CA,1604265764
posse,-14.09,-46.37,73.92,82,100,1.9,BR,1604265765
lovozero,68.0,35.01,36.45,92,100,7.85,RU,1604265765
roma,43.21,-75.46,42.8,81,90,19.46,US,1604265766
shiyan,32.65,110.78,52.81,58,34,4.5,CN,1604265766
torbay,47.67,-52.73,39.2,60,75,14.99,CA,1604265298
oranjemund,-28.55,16.43,63.1,65,0,8.37,NA,1604265322
makakilo city,21.35,-158.09,82.4,61,75,9.17,US,1604265767
omboue,-1.57,9.26,75.27,92,99,3.74,GA,1604265293
stillwater,36.12,-97.06,64.4,23,1,4.7,US,1604265768
angoche,-16.23,39.91,77.81,79,87,1.7,MZ,1604265768
sorland,67.67,12.69,49.71,81,100,29.75,NO,1604265281
el puerto de santa maria,36.59,-6.23,64.4,82,0,3.36,ES,1604265768
manica,49.0,-1.17,64.4,88,90,21.92,FR,1604265769
mehamn,71.04,27.85,39.2,81,0,11.41,NO,1604265769
qui nhon,13.77,109.23,75.38,84,97,13.02,VN,1604265605
westlock,54.15,-113.87,57.2,47,4,12.75,CA,1604265771
leczna,51.3,22.88,39.0,100,90,5.82,PL,1604265771
gizo,-8.1,156.84,83.86,74,20,7.23,SB,1604265772
kipushi,-11.77,27.23,65.97,50,12,4.03,CD,1604265772
uromi,6.7,6.33,72.99,91,100,4.88,NG,1604265772
merrill,45.18,-89.68,35.6,37,1,14.99,US,1604265618
ewa beach,21.32,-158.01,82.4,58,1,3.2,US,1604265618
okha,53.57,142.95,41.18,97,100,7.81,RU,1604265307
matamoros,25.53,-103.25,81.46,16,0,21.34,MX,1604265773
pemangkat,1.17,108.97,79.41,82,73,5.14,ID,1604265774
valleyview,55.07,-117.29,55.4,50,30,12.75,CA,1604265774
solnechnyy,50.72,136.63,30.4,97,90,4.27,RU,1604265317
staroutkinsk,57.23,59.33,26.44,96,0,2.89,RU,1604265774
waverley,-25.7,28.26,60.01,70,95,7.83,ZA,1604265761
rawson,-43.3,-65.1,96.8,6,40,18.34,AR,1604265697
sovetskiy,61.36,63.58,26.85,96,0,7.65,RU,1604265776
aykhal,66.0,111.5,5.0,84,0,6.71,RU,1604265777
la ligua,-32.45,-71.23,55.4,87,90,10.29,CL,1604265777
nuuk,64.18,-51.72,23.0,92,75,6.93,GL,1604265687
half moon bay,37.46,-122.43,79.0,52,5,3.36,US,1604265777
vilhena,-12.74,-60.15,84.2,51,75,5.82,BR,1604265778
saintes,45.67,-0.75,60.8,93,0,3.36,FR,1604265778
halifax,44.65,-63.57,53.01,81,100,19.46,CA,1604265500
orlik,52.52,99.83,10.58,85,64,3.24,RU,1604265342
puerto escondido,15.85,-97.07,85.71,58,0,4.03,MX,1604265781
killam,52.78,-111.85,60.8,36,38,17.22,CA,1604265781
fayaoue,-20.65,166.53,77.54,80,13,17.92,NC,1604265782
verkh-usugli,52.7,115.17,11.43,81,3,5.3,RU,1604265782
misratah,32.38,15.09,70.18,58,0,6.62,LY,1604265312
lerwick,60.15,-1.15,50.0,81,79,29.97,GB,1604265783
kimberley,-28.73,24.76,55.4,87,0,3.36,ZA,1604265783
pervomayskoye,43.92,46.71,53.44,90,76,4.38,RU,1604265784
anadyr,64.75,177.48,12.2,85,75,2.24,RU,1604265333
dormidontovka,47.77,134.91,32.61,94,2,7.47,RU,1604265784
borovoy,55.43,86.08,32.0,97,0,11.18,RU,1604265785
tefe,-3.35,-64.71,87.8,52,20,5.82,BR,1604265288
denpasar,-8.65,115.22,77.9,83,66,5.53,ID,1604265785
thinadhoo,0.53,72.93,83.16,75,99,10.67,MV,1604265668
pangkalanbuun,-2.68,111.62,73.96,97,87,2.39,ID,1604265786
san quintin,30.48,-115.95,77.18,37,0,11.41,MX,1604265786
souillac,-20.52,57.52,71.6,68,75,10.29,MU,1604265298
ballina,-28.87,153.57,68.0,72,75,10.29,AU,1604265787
corinto,37.94,22.96,60.01,63,43,2.57,GR,1604265788
santa fe,-31.63,-60.7,82.0,29,0,4.0,AR,1604265788
riverton,40.52,-111.94,66.99,42,1,10.29,US,1604265632
norwich,52.63,1.3,64.99,82,100,25.28,GB,1604265790
puerto carreno,6.19,-67.49,77.61,86,100,13.49,CO,1604265790
quime,-16.98,-67.22,56.39,64,95,7.0,BO,1604265791
vestmanna,62.16,-7.17,42.8,93,90,4.7,FO,1604265791
coihaique,-45.58,-72.07,77.0,17,0,8.05,CL,1604265791
dao,11.39,122.69,73.92,90,100,3.53,PH,1604265792
iranshahr,27.2,60.68,60.8,12,0,6.93,IR,1604265793
ilo,-17.64,-71.34,66.16,72,27,5.41,PE,1604265793
tabou,4.42,-7.35,78.08,87,40,5.75,CI,1604265793
saint-francois,46.42,3.91,64.4,77,90,5.82,FR,1604265304
sai buri,6.7,101.62,77.79,84,100,4.29,TH,1604265795
danville,36.59,-79.39,64.99,63,1,12.75,US,1604265796
waddan,29.16,16.14,61.83,79,0,10.38,LY,1604265796
lyndon,38.26,-85.6,51.8,29,1,17.22,US,1604265796
lasa,46.62,10.7,50.0,66,75,4.7,IT,1604265318
sarankhola,22.31,89.79,74.86,97,100,3.42,BD,1604265334
wadi musa,30.32,35.48,55.06,83,23,1.28,JO,1604265798
lesosibirsk,58.24,92.48,33.62,93,100,8.32,RU,1604265798
ukiah,39.15,-123.21,84.0,20,1,5.44,US,1604265655
thyboron,56.7,8.21,55.99,45,100,7.0,DK,1604265799
hun,29.13,15.95,60.06,81,0,7.05,LY,1604265800
sao filipe,14.9,-24.5,79.12,77,59,9.66,CV,1604265800
gweta,-20.18,25.23,79.18,37,2,5.88,BW,1604265801
barreirinhas,-2.75,-42.83,79.9,76,0,7.81,BR,1604265802
teknaf,20.86,92.31,75.4,89,41,6.13,BD,1604265802
gotsu,35.0,132.22,61.52,79,100,5.48,JP,1604265803
palestine,31.92,35.2,73.99,73,20,2.24,PS,1604265804
nouadhibou,20.93,-17.03,82.4,32,100,11.41,MR,1604265329
yeppoon,-23.13,150.73,71.6,88,90,4.7,AU,1604265294
warman,52.32,-106.57,55.4,30,75,13.87,CA,1604265806
tyukhtet,56.54,89.3,33.53,91,100,9.24,RU,1604265806
teya,60.38,92.63,34.54,90,100,13.53,RU,1604265345
santa cruz cabralia,-16.28,-39.02,69.8,88,90,4.7,BR,1604265807
lawrence,38.97,-95.24,57.0,24,1,6.93,US,1604265807
saint-pierre,-21.34,55.48,69.8,64,90,6.93,RE,1604265325
vanino,49.09,140.25,35.96,86,86,4.12,RU,1604265808
sao jose da coroa grande,-8.9,-35.15,78.03,81,72,11.12,BR,1604265808
rio gallegos,-51.62,-69.22,60.8,44,75,9.17,AR,1604265808
walvis bay,-22.96,14.51,55.4,87,9,6.93,NA,1604265809
sitka,57.05,-135.33,46.4,87,90,4.7,US,1604265285
sioux lookout,50.1,-91.92,24.8,49,75,8.05,CA,1604265809
mae sai,20.43,99.88,69.8,100,0,1.12,TH,1604265750
sao jose de ribamar,-2.56,-44.05,86.0,70,20,14.99,BR,1604265656
dawson creek,55.77,-120.24,57.2,50,20,12.75,CA,1604265810
husavik,66.04,-17.34,37.4,55,75,8.05,IS,1604265296
tura,25.52,90.22,68.97,96,99,1.57,IN,1604265346
belen,36.49,36.22,69.8,56,40,3.36,TR,1604265811
zaozerne,45.16,33.28,54.25,76,96,10.8,UA,1604265812
parati,-23.22,-44.71,62.6,77,75,6.93,BR,1604265812
benghazi,32.12,20.07,70.3,67,3,10.58,LY,1604265813
aswan,24.09,32.91,72.81,45,0,9.26,EG,1604265813
prado,-17.34,-39.22,69.57,93,100,10.54,BR,1604265323
ryotsu,38.08,138.43,57.2,82,75,5.82,JP,1604265814
kokopo,-4.35,152.26,79.56,84,6,3.96,PG,1604265814
ocampo,21.65,-101.5,67.15,26,0,22.1,MX,1604265814
waitati,-45.75,170.57,54.0,54,100,17.0,NZ,1604265815
balikpapan,-1.27,116.83,77.16,90,100,5.1,ID,1604265564
port macquarie,-31.43,152.92,66.0,73,98,3.0,AU,1604265815
atyrau,47.12,51.88,57.2,26,40,11.18,KZ,1604265816
muscat,23.61,58.59,68.0,72,0,1.12,OM,1604265549
haapiti,-17.57,-149.87,84.2,66,75,6.93,PF,1604265817
nalchiti,22.63,90.28,75.6,94,100,3.04,BD,1604265818
belaya gora,68.53,146.42,-12.41,86,62,7.23,RU,1604265818
orzhytsya,49.79,32.7,47.16,91,96,5.73,UA,1604265819
evanston,42.04,-87.69,42.8,33,20,17.22,US,1604265792
pionerskiy,54.95,20.23,44.01,87,20,8.95,RU,1604265820
acarau,-2.89,-40.12,80.83,78,0,17.02,BR,1604265821
nantucket,41.28,-70.1,60.8,82,20,11.41,US,1604265339
waingapu,-9.66,120.26,78.66,77,97,5.55,ID,1604265284
sawai madhopur,25.98,76.37,59.59,31,0,1.25,IN,1604265821
el zapote,21.07,-102.8,80.08,25,0,12.55,MX,1604265822
okhotsk,59.38,143.3,18.77,87,100,16.91,RU,1604265329
valdepenas,38.76,-3.38,59.0,64,99,0.56,ES,1604265822
grindavik,63.84,-22.43,35.6,93,75,6.93,IS,1604265351
the pas,53.83,-101.25,37.4,69,75,9.17,CA,1604265823
pimentel,-6.84,-79.93,68.0,68,0,21.92,PE,1604265823
canavieiras,-15.68,-38.95,82.4,83,20,1.12,BR,1604265824
warrington,53.39,-2.58,64.4,77,40,23.04,GB,1604265815
rorvik,64.86,11.24,53.6,58,0,21.92,NO,1604265789
juan lacaze,-34.43,-57.44,68.0,64,0,13.87,UY,1604265825
ipanema,-30.14,-51.22,68.0,52,40,13.87,BR,1604265825
lodja,-3.48,23.43,70.25,93,71,2.42,CD,1604265825
kieta,-6.22,155.63,82.54,68,34,0.96,PG,1604265825
vardo,70.37,31.11,41.0,86,75,28.86,NO,1604265289
faya,18.39,42.45,62.6,27,0,3.36,SA,1604265282
yumen,40.28,97.2,27.84,89,0,2.28,CN,1604265826
iquitos,-3.75,-73.25,80.6,74,75,4.7,PE,1604265558
aksu,41.12,80.26,38.7,63,0,2.01,CN,1604265827
ocos,14.51,-92.19,87.8,74,40,6.93,GT,1604265827
kang,-23.68,22.79,74.52,47,100,7.05,BW,1604265827
taoudenni,22.68,-3.98,82.96,16,100,12.37,ML,1604265289
inhambane,-23.86,35.38,71.65,80,4,10.85,MZ,1604265328
hualmay,-11.1,-77.61,67.17,69,76,9.13,PE,1604265295
humberto de campos,-2.6,-43.46,80.62,73,15,6.51,BR,1604265829
arenzano,44.41,8.68,62.6,82,75,11.41,IT,1604265829
san pedro,14.35,121.02,77.0,94,75,4.7,PH,1604265829
dakar,14.69,-17.44,78.8,78,0,2.24,SN,1604265587
nizhniy baskunchak,48.22,46.83,51.19,46,9,7.61,RU,1604265830
ilulissat,69.22,-51.1,19.4,67,100,6.93,GL,1604265296
kromy,52.69,35.77,48.67,91,100,8.48,RU,1604265831
ghosi,26.11,83.54,70.48,35,0,5.73,IN,1604265831
la union,-5.4,-80.75,77.36,49,64,16.17,PE,1604265831
hirara,24.8,125.28,76.26,71,59,14.88,JP,1604265348
novobirilyussy,56.95,90.67,33.8,90,100,9.66,RU,1604265832
portree,57.41,-6.19,51.01,73,88,27.0,GB,1604265832
sinnamary,5.38,-52.95,82.4,75,99,11.25,GF,1604265833
pandan,14.05,124.17,78.46,83,100,4.65,PH,1604265833
keokuk,40.4,-91.38,46.4,26,1,18.34,US,1604265833
khasan,42.43,130.64,41.5,64,0,13.13,RU,1604265308
ejea de los caballeros,42.13,-1.14,55.4,71,11,3.58,ES,1604265834
xuddur,4.12,43.89,74.07,83,97,8.23,SO,1604265834
iwanai,42.97,140.51,52.72,90,89,6.35,JP,1604265834
porgera,-5.47,143.2,40.35,100,58,1.16,PG,1604265786
klaksvik,62.23,-6.59,42.8,93,95,1.12,FO,1604265344
markova,48.68,24.41,37.49,83,0,4.61,UA,1604265835
birjand,32.87,59.22,37.4,12,0,2.24,IR,1604265836
banff,51.18,-115.57,53.6,45,100,11.41,CA,1604265829
pacific grove,36.62,-121.92,86.0,40,1,4.7,US,1604265760
krasnystaw,50.98,23.17,39.0,100,90,5.82,PL,1604265836
porto belo,-27.16,-48.55,69.8,56,20,10.29,BR,1604265837
port blair,11.67,92.75,79.97,79,57,3.89,IN,1604265837
suamico,44.63,-88.04,37.99,40,40,19.46,US,1604265838
bonthe,7.53,-12.51,79.83,84,1,6.33,SL,1604265323
pita,10.83,-12.58,76.23,60,19,1.77,GN,1604265838
asau,46.43,26.4,36.0,97,0,5.48,RO,1604265308
kilindoni,-7.91,39.67,78.82,79,39,11.72,TZ,1604265839
tessalit,20.2,1.01,77.76,18,45,10.67,ML,1604265349
kapit,2.02,112.93,74.21,93,100,0.89,MY,1604265839
dzerzhinskoye,56.83,95.23,33.33,92,100,7.67,RU,1604265839
rocha,-34.48,-54.33,60.55,69,0,6.26,UY,1604265287
santa isabel do rio negro,-0.41,-65.02,79.99,74,40,4.07,BR,1604265840
hudson bay,52.85,-102.38,43.39,62,29,12.39,CA,1604265840
dolgorukovo,52.32,38.35,47.32,95,78,11.92,RU,1604265841
sidlaghatta,13.39,77.86,69.8,100,40,1.12,IN,1604265841
kismayo,-0.36,42.55,79.66,79,82,13.02,SO,1604265320
pangnirtung,66.15,-65.71,17.6,78,90,5.82,CA,1604265315
